{"streetId":"2272976","hash":"790c276d796dbfbe560b8ac3c0c9e9aa","coordinatesLat":59.9380172714686,"coordinatesLng":10.7569805305833,"municipalityName":"Oslo","boroughName":"Sagene","subareaName":"Sagene","postalCode":"0465","streetName":"Bentsegata","streetNumber":"2","streetLetter":null,"slug":"bentsegata-2","unitType":"building","hasLiveSales":false,"isLiveSalesApproved":false,"adStates":["sold",null],"marketStates":["pending"],"_type":"map"}
{"streetId":"284086","hash":"3a5acf87a927536f76490fc8a507e17b","coordinatesLat":59.9434542309685,"coordinatesLng":10.7038151075151,"municipalityName":"Oslo","boroughName":"Vestre Aker","subareaName":"Ris","postalCode":"0373","streetName":"Borgenveien","streetNumber":"52","streetLetter":null,"slug":"borgenveien-52","unitType":"apartment","hasLiveSales":false,"isLiveSalesApproved":false,"adStates":["sold"],"marketStates":["sold"],"_type":"map"}
{"streetId":"2943256","hash":"83a6d0422c413eb44c1161b163dae744","coordinatesLat":59.9034999017531,"coordinatesLng":10.7559539314992,"municipalityName":"Oslo","boroughName":"Gamle Oslo","subareaName":"Loenga","postalCode":"0194","streetName":"Sørengkaia","streetNumber":"33","streetLetter":null,"slug":"sørengkaia-33","unitType":"building","hasLiveSales":false,"isLiveSalesApproved":false,"adStates":["sold"],"marketStates":["pending"],"_type":"map"}
{"streetId":"282532","hash":"105cb7e1ab47a89ec5ad5cc04c5cec03","coordinatesLat":59.9433370764113,"coordinatesLng":10.8472936443563,"municipalityName":"Oslo","boroughName":"Bjerke","subareaName":"Bjerke","postalCode":"0596","streetName":"Beverveien","streetNumber":"10","streetLetter":null,"slug":"beverveien-10","unitType":"apartment","hasLiveSales":false,"isLiveSalesApproved":false,"adStates":["sold"],"marketStates":["sold"],"_type":"map"}
{"streetId":"285560","hash":"bfe14bac08709307ead3332cc90a7212","coordinatesLat":59.9023090327533,"coordinatesLng":10.6808591452501,"municipalityName":"Oslo","boroughName":"Frogner","subareaName":"Bygdøy","postalCode":"0287","streetName":"Bygdøy terrasse","streetNumber":"22","streetLetter":null,"slug":"bygdøy-terrasse-22","unitType":"building","hasLiveSales":false,"isLiveSalesApproved":false,"adStates":["sold"],"marketStates":["pending"],"_type":"map"}
{"streetId":"313325","hash":"555eb0fc74d716c20a8388937384ba50","coordinatesLat":59.9212342171572,"coordinatesLng":10.6379154421338,"municipalityName":"Oslo","boroughName":"Ullern","subareaName":"Lilleaker","postalCode":"0284","streetName":"Lilleakerveien","streetNumber":"33","streetLetter":"E","slug":"lilleakerveien-33e","unitType":"apartment","hasLiveSales":false,"isLiveSalesApproved":false,"adStates":["sold"],"marketStates":["sold"],"_type":"map"}
{"streetId":"2536413","hash":"d5e2ea5530bc4152a9ba77040c0a6b89","coordinatesLat":59.9324839235821,"coordinatesLng":10.7908891066219,"municipalityName":"Oslo","boroughName":"Grünerløkka","subareaName":"Hasle","postalCode":"0585","streetName":"Kanonhallveien","streetNumber":"52","streetLetter":"B","slug":"kanonhallveien-52b","unitType":"building","hasLiveSales":false,"isLiveSalesApproved":false,"adStates":["sold"],"marketStates":["pending"],"_type":"map"}
{"streetId":"2397553","hash":"f500bf006a493cafa37795298122d87e","coordinatesLat":59.9123934490903,"coordinatesLng":10.7748546053474,"municipalityName":"Oslo","boroughName":"Gamle Oslo","subareaName":"Kampen","postalCode":"0652","streetName":"Jens Bjelkes gate","streetNumber":"82","streetLetter":"B","slug":"jens-bjelkes-gate-82b","unitType":"apartment","hasLiveSales":false,"isLiveSalesApproved":false,"adStates":["sold"],"marketStates":["sold"],"_type":"map"}
{"streetId":"2711829","hash":"07cd80e0964e26e27e7d191b59e4a8b0","coordinatesLat":59.8974380703833,"coordinatesLng":10.6240207573023,"municipalityName":"Bærum","boroughName":null,"subareaName":"Snarøya","postalCode":"1364","streetName":"Bernt Balchens vei","streetNumber":"18","streetLetter":null,"slug":"bernt-balchens-vei-18","unitType":"building","hasLiveSales":false,"isLiveSalesApproved":false,"adStates":["sold"],"marketStates":["pending"],"_type":"map"}
{"streetId":"2400508","hash":"c90110868c6409138acffed776f4c88c","coordinatesLat":59.9181156164579,"coordinatesLng":10.7037109254541,"municipalityName":"Oslo","boroughName":"Frogner","subareaName":"Frogner","postalCode":"0264","streetName":"Thomas Heftyes gate","streetNumber":"37","streetLetter":"A","slug":"thomas-heftyes-gate-37a","unitType":"apartment","hasLiveSales":false,"isLiveSalesApproved":false,"adStates":["sold"],"marketStates":["sold"],"_type":"map"}
{"streetId":"2414828","hash":"91769b034830d29dd482b573f3e5740d","coordinatesLat":59.9339909307686,"coordinatesLng":10.7174321675002,"municipalityName":"Oslo","boroughName":"Frogner","subareaName":"Majorstuen","postalCode":"0362","streetName":"Suhms gate","streetNumber":"26","streetLetter":null,"slug":"suhms-gate-26","unitType":"building","hasLiveSales":false,"isLiveSalesApproved":false,"adStates":["sold"],"marketStates":["pending"],"_type":"map"}
{"streetId":"2486670","hash":"ebcf89e9ba70e9b6ebd98f4c73e2743f","coordinatesLat":59.900991986213,"coordinatesLng":10.7791448558418,"municipalityName":"Oslo","boroughName":"Gamle Oslo","subareaName":"Gamlebyen","postalCode":"0196","streetName":"Svingen","streetNumber":"9","streetLetter":null,"slug":"svingen-9","unitType":"apartment","hasLiveSales":false,"isLiveSalesApproved":null,"adStates":["sold"],"marketStates":["sold"],"_type":"map"}
